[
  {"postal_code":"1000","city":"Lausanne","lat":46.5197,"lng":6.6323,"distance_km":0},
  {"postal_code":"1003","city":"Lausanne","lat":46.5202,"lng":6.6293,"distance_km":0.3},
  {"postal_code":"1004","city":"Lausanne","lat":46.5262,"lng":6.6226,"distance_km":1.0},
  {"postal_code":"1005","city":"Lausanne","lat":46.5242,"lng":6.6395,"distance_km":0.7},
  {"postal_code":"1006","city":"Lausanne","lat":46.5094,"lng":6.6269,"distance_km":1.2},
  {"postal_code":"1007","city":"Lausanne","lat":46.5148,"lng":6.6135,"distance_km":1.4},
  {"postal_code":"1010","city":"Lausanne","lat":46.5325,"lng":6.6368,"distance_km":1.4},
  {"postal_code":"1011","city":"Lausanne (CHUV)","lat":46.5253,"lng":6.6445,"distance_km":1.0},
  {"postal_code":"1012","city":"Lausanne (Chailly)","lat":46.5280,"lng":6.6500,"distance_km":1.3},
  {"postal_code":"1014","city":"Lausanne Adm cant","lat":46.5197,"lng":6.6323,"distance_km":0},
  {"postal_code":"1015","city":"Lausanne (Dorigny)","lat":46.5212,"lng":6.5824,"distance_km":3.9},
  {"postal_code":"1018","city":"Lausanne (Bellevaux)","lat":46.5376,"lng":6.6317,"distance_km":2.0},
  {"postal_code":"1020","city":"Renens","lat":46.5394,"lng":6.5883,"distance_km":3.7},
  {"postal_code":"1022","city":"Chavannes-près-Renens","lat":46.5294,"lng":6.5812,"distance_km":4.1},
  {"postal_code":"1023","city":"Crissier","lat":46.5486,"lng":6.5803,"distance_km":4.9},
  {"postal_code":"1024","city":"Ecublens","lat":46.5308,"lng":6.5600,"distance_km":5.6},
  {"postal_code":"1025","city":"St-Sulpice","lat":46.5092,"lng":6.5629,"distance_km":5.6},
  {"postal_code":"1026","city":"Denges","lat":46.5185,"lng":6.5317,"distance_km":7.7},
  {"postal_code":"1027","city":"Lonay","lat":46.5218,"lng":6.5140,"distance_km":9.1},
  {"postal_code":"1028","city":"Préverenges","lat":46.5109,"lng":6.5302,"distance_km":7.8},
  {"postal_code":"1029","city":"Villars-Ste-Croix","lat":46.5589,"lng":6.5691,"distance_km":6.5},
  {"postal_code":"1030","city":"Bussigny","lat":46.5494,"lng":6.5549,"distance_km":6.6},
  {"postal_code":"1032","city":"Romanel-sur-Lausanne","lat":46.5617,"lng":6.6094,"distance_km":4.9},
  {"postal_code":"1033","city":"Cheseaux-sur-Lausanne","lat":46.5832,"lng":6.6021,"distance_km":7.3},
  {"postal_code":"1038","city":"Bercher","lat":46.6964,"lng":6.7097,"distance_km":21.0},
  {"postal_code":"1040","city":"Echallens","lat":46.6398,"lng":6.6341,"distance_km":13.4},
  {"postal_code":"1052","city":"Le Mont-sur-Lausanne","lat":46.5556,"lng":6.6392,"distance_km":4.1},
  {"postal_code":"1053","city":"Cugy VD","lat":46.5831,"lng":6.6685,"distance_km":7.6},
  {"postal_code":"1066","city":"Epalinges","lat":46.5650,"lng":6.6650,"distance_km":5.6},
  {"postal_code":"1068","city":"Monts-de-Pully","lat":46.5322,"lng":6.6722,"distance_km":3.2},
  {"postal_code":"1071","city":"Chexbres","lat":46.4792,"lng":6.7792,"distance_km":13.8},
  {"postal_code":"1073","city":"Savigny","lat":46.5459,"lng":6.7206,"distance_km":7.1},
  {"postal_code":"1082","city":"Corcelles-le-Jorat","lat":46.6033,"lng":6.7203,"distance_km":10.7},
  {"postal_code":"1090","city":"La Croix (Lutry)","lat":46.5158,"lng":6.6852,"distance_km":4.1},
  {"postal_code":"1091","city":"Grandvaux","lat":46.4998,"lng":6.7136,"distance_km":7.1},
  {"postal_code":"1092","city":"Belmont-sur-Lausanne","lat":46.5225,"lng":6.6839,"distance_km":4.0},
  {"postal_code":"1093","city":"La Conversion","lat":46.5167,"lng":6.6878,"distance_km":4.3},
  {"postal_code":"1094","city":"Paudex","lat":46.4994,"lng":6.6642,"distance_km":3.2},
  {"postal_code":"1095","city":"Lutry","lat":46.5044,"lng":6.6861,"distance_km":4.7},
  {"postal_code":"1096","city":"Cully","lat":46.4892,"lng":6.7322,"distance_km":9.1},
  {"postal_code":"1097","city":"Riex","lat":46.4889,"lng":6.7414,"distance_km":9.9},
  {"postal_code":"1098","city":"Epesses","lat":46.4878,"lng":6.7514,"distance_km":10.6},
  {"postal_code":"1099","city":"Les Cullayes","lat":46.5889,"lng":6.7300,"distance_km":9.5},
  {"postal_code":"1110","city":"Morges","lat":46.5098,"lng":6.4985,"distance_km":10.3},
  {"postal_code":"1800","city":"Vevey","lat":46.4628,"lng":6.8419,"distance_km":20.6},
  {"postal_code":"1820","city":"Montreux","lat":46.4312,"lng":6.9106,"distance_km":27.6},
  {"postal_code":"1008","city":"Prilly","lat":46.5367,"lng":6.6050,"distance_km":2.7},
  {"postal_code":"1009","city":"Pully","lat":46.5100,"lng":6.6612,"distance_km":2.5}
]
